comune,CDX_votes_2020,CDX_perc_2020,CSX_votes_2020,CSX_perc_2020,provincia,regione,CSX_votes_2024,CSX_perc_2024,CDX_votes_2024,CDX_perc_2024,margin_2020,margin_2024,margin_shift,latitude,longitude
Airole,70,48.28,53,36.55,Imperia,Liguria,72,49.32,67,45.89,11.730000000000004,-3.4299999999999997,-15.160000000000004,43.871038,7.5541812
Alassio,2985,62.84,1496,31.49,Savona,Liguria,1554,40.82,2141,56.24,31.350000000000005,15.420000000000002,-15.930000000000003,44.0080109,8.1730265
Albenga,6839,63.65,3045,28.34,Savona,Liguria,3891,44.7,4544,52.21,35.31,7.509999999999998,-27.800000000000004,44.0492503,8.2131239
Albisola Superiore,2353,52.03,1741,38.5,Savona,Liguria,2053,49.43,1922,46.28,13.530000000000001,-3.1499999999999986,-16.68,44.339838,8.509353
Albissola Marina,1514,51.9,1198,41.07,Savona,Liguria,1245,50.69,1123,45.72,10.829999999999998,-4.969999999999999,-15.799999999999997,44.3272723,8.5031895
Altare,476,53.66,339,38.22,Savona,Liguria,256,44.76,288,50.35,15.439999999999998,5.590000000000003,-9.849999999999994,44.3359819,8.3399306
Ameglia,1210,59.05,666,32.5,La Spezia,Liguria,780,45.11,900,52.05,26.549999999999997,6.939999999999998,-19.61,44.0659288,9.9574096
Andora,2646,72.18,770,21.0,Savona,Liguria,839,31.41,1709,63.98,51.18000000000001,32.56999999999999,-18.610000000000014,43.9519286,8.1456487
Apricale,100,47.85,81,38.76,Imperia,Liguria,63,47.37,61,45.86,9.090000000000003,-1.509999999999998,-10.600000000000001,43.8803889,7.6602096
Aquila D'Arroscia,100,86.96,10,8.7,Imperia,Liguria,4,4.6,82,94.25,78.25999999999999,89.65,11.390000000000015,44.085927,8.005247
Arcola,2222,47.73,1933,41.53,La Spezia,Liguria,1980,52.51,1633,43.3,6.199999999999996,-9.21,-15.409999999999997,44.1143821,9.9059673
Arenzano,3018,48.21,2866,45.78,Genova,Liguria,2911,51.02,2647,46.39,2.4299999999999997,-4.630000000000003,-7.060000000000002,44.4025183,8.6831317
Armo,32,54.24,21,35.59,Imperia,Liguria,10,20.0,38,76.0,18.65,56.0,37.35,44.0879649,7.9147826
Arnasco,166,61.94,88,32.84,Savona,Liguria,91,41.74,120,55.05,29.099999999999994,13.309999999999995,-15.79,44.078228,8.107449
Aurigo,173,80.09,37,17.13,Imperia,Liguria,47,30.13,104,66.67,62.96000000000001,36.540000000000006,-26.42,43.9826457,7.9221224
Avegno,805,64.55,376,30.15,Genova,Liguria,368,34.42,661,61.83,34.4,27.409999999999997,-6.990000000000002,44.3913363,9.1563156
Badalucco,293,59.31,149,30.16,Imperia,Liguria,161,43.63,191,51.76,29.150000000000002,8.129999999999995,-21.020000000000007,43.9155573,7.8472946
Bajardo,81,56.64,49,34.27,Imperia,Liguria,30,27.78,66,61.11,22.369999999999997,33.33,10.96,43.9031088,7.7167756
Balestrino,202,71.13,62,21.83,Savona,Liguria,66,29.6,149,66.82,49.3,37.21999999999999,-12.080000000000005,44.12513,8.1715202
Bardineto,272,77.49,65,18.52,Savona,Liguria,76,27.94,181,66.54,58.97,38.60000000000001,-20.36999999999999,44.1931231,8.1324517
Bargagli,609,52.86,459,39.84,Genova,Liguria,442,46.92,458,48.62,13.019999999999996,1.6999999999999957,-11.32,44.4478019,9.087661
Bergeggi,300,47.77,276,43.95,Savona,Liguria,282,55.4,206,40.47,3.8200000000000003,-14.93,-18.75,44.249735,8.443353
Beverino,664,57.89,385,33.57,La Spezia,Liguria,416,39.39,610,57.77,24.32,18.380000000000003,-5.939999999999998,44.2059509,9.7857299
Bogliasco,1177,52.71,891,39.9,Genova,Liguria,1035,48.52,1029,48.24,12.810000000000002,-0.28000000000000114,-13.090000000000003,44.3790556,9.0679508
Boissano,830,65.51,348,27.47,Savona,Liguria,348,34.87,616,61.72,38.040000000000006,26.85,-11.190000000000005,44.1357684,8.2217538
Bolano,1710,48.11,1167,32.84,La Spezia,Liguria,1405,46.8,1530,50.97,15.269999999999996,4.170000000000002,-11.099999999999994,44.1876494,9.8956159
Bonassola,205,44.86,229,50.11,La Spezia,Liguria,185,50.0,122,32.97,-5.25,-17.03,-11.780000000000001,44.1835463,9.5825259
Bordighera,2706,64.09,1264,29.94,Imperia,Liguria,1112,33.13,2091,62.31,34.150000000000006,29.18,-4.970000000000006,43.7850512,7.6591094
Borghetto D'Arroscia,114,67.86,38,22.62,Imperia,Liguria,34,28.33,83,69.17,45.239999999999995,40.84,-4.3999999999999915,44.057726,7.981747
Borghetto Di Vara,315,64.68,147,30.18,La Spezia,Liguria,134,33.09,260,64.2,34.50000000000001,31.11,-3.3900000000000077,44.2236798,9.7214041
Borghetto Santo Spirito,1388,72.07,423,21.96,Savona,Liguria,417,27.76,1007,67.04,50.10999999999999,39.28,-10.829999999999991,44.1144461,8.235328
Borgio Verezzi,658,60.87,341,31.54,Savona,Liguria,340,38.99,494,56.65,29.33,17.659999999999997,-11.670000000000002,44.164968200000004,8.306662116087459
Borgomaro,249,68.78,75,20.72,Imperia,Liguria,63,23.08,199,72.89,48.06,49.81,1.75,43.974924,7.945147
Bormida,112,61.88,55,30.39,Savona,Liguria,42,32.81,79,61.72,31.490000000000002,28.909999999999997,-2.5800000000000054,44.2782607,8.2341987
Borzonasca,490,65.42,220,29.37,Genova,Liguria,191,32.1,334,56.13,36.05,24.03,-12.019999999999996,44.422248,9.38657
Brugnato,477,66.53,189,26.36,La Spezia,Liguria,236,35.98,400,60.98,40.17,25.0,-15.170000000000002,44.237038,9.7241009
Busalla,1575,59.93,896,34.09,Genova,Liguria,813,36.56,1292,58.09,25.839999999999996,21.53,-4.309999999999995,44.573483,8.9433002
Cairo Montenotte,3295,57.07,2077,35.97,Savona,Liguria,1889,51.46,1636,44.57,21.1,-6.890000000000001,-27.990000000000002,44.3992684,8.2745606
Calice Al Cornoviglio,264,52.8,138,27.6,La Spezia,Liguria,149,36.34,241,58.78,25.199999999999996,22.439999999999998,-2.759999999999998,44.2434732,9.8367245
Calice Ligure,430,49.94,350,40.65,Savona,Liguria,350,49.86,327,46.58,9.29,-3.280000000000001,-12.57,44.204933,8.295351
Calizzano,471,67.87,189,27.23,Savona,Liguria,190,36.26,304,58.02,40.64,21.760000000000005,-18.879999999999995,44.2368806,8.1144696
Camogli,1448,50.91,1013,35.62,Genova,Liguria,1125,44.29,1311,51.61,15.29,7.32,-7.969999999999999,44.349247,9.158863
Campo Ligure,653,45.47,701,48.82,Genova,Liguria,734,56.2,534,40.89,-3.3500000000000014,-15.310000000000002,-11.96,44.537644,8.698153
Campomorone,1706,50.52,1427,42.26,Genova,Liguria,1517,51.93,1277,43.72,8.260000000000005,-8.21,-16.470000000000006,44.507337,8.8901102
Camporosso,1802,71.2,592,23.39,Imperia,Liguria,668,38.52,1023,59.0,47.81,20.479999999999997,-27.330000000000005,43.8151011,7.6284178
Carasco,1036,63.87,466,28.73,Genova,Liguria,479,35.32,788,58.11,35.14,22.79,-12.350000000000001,44.3497559,9.3456502
Caravonica,87,70.16,25,20.16,Imperia,Liguria,20,16.26,97,78.86,50.0,62.599999999999994,12.599999999999994,43.993025,7.958047
Carcare,1426,53.63,1063,39.98,Savona,Liguria,1095,55.36,799,40.39,13.650000000000006,-14.969999999999999,-28.620000000000005,44.3574727,8.2901625
Carro,190,69.85,66,24.26,La Spezia,Liguria,83,36.09,135,58.7,45.58999999999999,22.61,-22.97999999999999,44.2728242,9.6074789
Carrodano,151,52.98,113,39.65,La Spezia,Liguria,111,49.12,104,46.02,13.329999999999998,-3.0999999999999943,-16.429999999999993,44.2419991,9.6557533
Casanova Lerrone,169,58.89,74,25.78,Savona,Liguria,85,42.08,110,54.46,33.11,12.380000000000003,-20.729999999999997,44.0321164,8.0502228
Casarza Ligure,2073,61.3,1054,31.16,Genova,Liguria,1063,37.67,1621,57.44,30.139999999999997,19.769999999999996,-10.370000000000001,44.2735459,9.4497709
Casella,1066,60.95,603,34.48,Genova,Liguria,544,43.45,676,53.99,26.470000000000006,10.54,-15.930000000000007,44.5355862,8.9967857
Castel Vittorio,91,70.54,27,20.93,Imperia,Liguria,34,34.69,60,61.22,49.61000000000001,26.53,-23.080000000000005,43.9285566,7.674434
Castelbianco,58,38.41,31,20.53,Savona,Liguria,46,36.22,76,59.84,17.879999999999995,23.620000000000005,5.740000000000009,44.1118166,8.0709079
Castellaro,386,65.65,145,24.66,Imperia,Liguria,152,34.86,271,62.16,40.99000000000001,27.299999999999997,-13.690000000000012,43.865221,7.868748
Castelnuovo Magra,1839,47.75,1717,44.59,La Spezia,Liguria,1622,52.0,1365,43.76,3.1599999999999966,-8.240000000000002,-11.399999999999999,44.0998518,10.0169419
Castelvecchio Di Rocca Barbena,47,58.75,27,33.75,Savona,Liguria,12,16.22,61,82.43,25.0,66.21000000000001,41.21000000000001,44.129829,8.116648
Castiglione Chiavarese,432,61.45,238,33.85,Genova,Liguria,265,41.02,347,53.72,27.6,12.699999999999996,-14.900000000000006,44.2740903,9.5146752
Celle Ligure,1427,52.81,1070,39.6,Savona,Liguria,1047,47.33,1050,47.47,13.21,0.14000000000000057,-13.07,44.3463235,8.5444342
Cengio,938,61.23,510,33.29,Savona,Liguria,413,34.65,738,61.91,27.939999999999998,27.259999999999998,-0.6799999999999997,44.3902587,8.2079522
Ceranesi,1028,53.88,759,39.78,Genova,Liguria,797,48.69,766,46.79,14.100000000000001,-1.8999999999999986,-16.0,44.5112695,8.8789407
Ceriale,1638,68.05,614,25.51,Savona,Liguria,587,31.71,1156,62.45,42.53999999999999,30.740000000000002,-11.79999999999999,44.091629,8.223251
Ceriana,286,66.36,112,25.99,Imperia,Liguria,67,27.13,162,65.59,40.370000000000005,38.46000000000001,-1.9099999999999966,43.8807025,7.7745643
Cervo,269,52.23,149,28.93,Imperia,Liguria,136,40.48,187,55.65,23.299999999999997,15.170000000000002,-8.129999999999995,43.9257729,8.1151521
Cesio,77,56.2,15,10.95,Imperia,Liguria,34,34.69,60,61.22,45.25,26.53,-18.72,44.0072964,7.9735359
Chiavari,7770,59.72,4364,33.54,Genova,Liguria,4573,39.24,6529,56.02,26.18,16.78,-9.399999999999999,44.3164494,9.3233382
Chiusanico,192,64.21,85,28.43,Imperia,Liguria,86,34.54,153,61.45,35.779999999999994,26.910000000000004,-8.86999999999999,43.9724065,7.9910739
Chiusavecchia,134,69.07,32,16.49,Imperia,Liguria,42,27.63,108,71.05,52.58,43.42,-9.159999999999997,43.9676459,7.9841386
Cicagna,759,71.4,244,22.95,Genova,Liguria,245,28.16,592,68.05,48.45,39.89,-8.560000000000002,44.4093233,9.2355333
Cipressa,344,63.94,139,25.84,Imperia,Liguria,179,41.15,234,53.79,38.099999999999994,12.64,-25.459999999999994,43.8510162,7.9309503
Cisano Sul Neva,611,54.85,433,38.87,Savona,Liguria,475,49.69,447,46.76,15.980000000000004,-2.9299999999999997,-18.910000000000004,44.0864021,8.1474179
Civezza,168,55.81,115,38.21,Imperia,Liguria,86,39.45,125,57.34,17.6,17.89,0.28999999999999915,43.8798564,7.9513674
Cogoleto,2617,50.71,2106,40.81,Genova,Liguria,2093,53.49,1687,43.11,9.899999999999999,-10.380000000000003,-20.28,44.3893419,8.6428599
Cogorno,1605,59.4,935,34.6,Genova,Liguria,923,38.35,1335,55.46,24.799999999999997,17.11,-7.689999999999998,44.3330809,9.3724611
Coreglia Ligure,80,58.82,50,36.76,Genova,Liguria,42,36.52,70,60.87,22.060000000000002,24.349999999999994,2.289999999999992,44.3829,9.2643137
Cosio D'Arroscia,70,68.63,20,19.61,Imperia,Liguria,13,13.4,79,81.44,49.019999999999996,68.03999999999999,19.019999999999996,44.0771225,7.8330076
Cosseria,359,62.11,182,31.49,Savona,Liguria,267,61.66,152,35.1,30.62,-26.559999999999995,-57.17999999999999,44.3683143,8.2348661
Costarainera,228,62.98,99,27.35,Imperia,Liguria,102,33.22,194,63.19,35.629999999999995,29.97,-5.659999999999997,43.855421,7.938749
Crocefieschi,189,54.78,134,38.84,Genova,Liguria,146,51.05,131,45.8,15.939999999999998,-5.25,-21.189999999999998,44.5797477,9.0239649
Davagna,418,52.25,309,38.62,Genova,Liguria,330,48.67,309,45.58,13.630000000000003,-3.0900000000000034,-16.720000000000006,44.4669525,9.0909582
Dego,591,65.38,273,30.2,Savona,Liguria,231,40.17,328,57.04,35.17999999999999,16.869999999999997,-18.309999999999995,44.443038,8.305947
Deiva Marina,412,56.67,238,32.74,La Spezia,Liguria,215,34.57,369,59.32,23.93,24.75,0.8200000000000003,44.2182308,9.5200465
Diano Arentino,185,64.46,63,21.95,Imperia,Liguria,59,29.5,127,63.5,42.50999999999999,34.0,-8.509999999999991,43.949625,8.04155
Diano Castello,553,63.49,186,21.35,Imperia,Liguria,190,27.98,464,68.34,42.14,40.36,-1.7800000000000011,43.9237407,8.0671862
Diano Marina,1516,60.28,608,24.17,Imperia,Liguria,567,30.26,1221,65.15,36.11,34.89,-1.2199999999999989,43.9100767,8.0803641
Diano San Pietro,281,59.53,136,28.81,Imperia,Liguria,115,30.59,245,65.16,30.720000000000002,34.56999999999999,3.8499999999999908,43.931424,8.071651
Dolceacqua,512,56.89,317,35.22,Imperia,Liguria,274,41.64,353,53.65,21.67,12.009999999999998,-9.660000000000004,43.8509263,7.6236357
Dolcedo,311,59.35,155,29.58,Imperia,Liguria,177,41.94,225,53.32,29.770000000000003,11.380000000000003,-18.39,43.9074393,7.9510985
Erli,77,63.11,35,28.69,Savona,Liguria,29,31.87,59,64.84,34.42,32.97,-1.4500000000000028,44.137529,8.103148
Fascia,31,72.09,11,25.58,Genova,Liguria,17,42.5,23,57.5,46.510000000000005,15.0,-31.510000000000005,44.5719677,9.2356396
Favale Di Malvaro,181,74.18,51,20.9,Genova,Liguria,43,22.63,141,74.21,53.28000000000001,51.58,-1.70000000000001,44.4529968,9.2595603
Finale Ligure,3265,59.96,1782,32.73,Savona,Liguria,1827,41.9,2335,53.56,27.230000000000004,11.660000000000004,-15.57,44.1689049,8.3436524
Follo,1423,52.37,1034,38.06,La Spezia,Liguria,970,39.88,1379,56.7,14.309999999999995,16.82,2.510000000000005,44.1711511,9.841252217661719
Fontanigorda,63,47.01,65,48.51,Genova,Liguria,62,53.91,47,40.87,-1.5,-13.04,-11.54,44.54605,9.304466
Framura,243,64.12,105,27.7,La Spezia,Liguria,107,35.67,182,60.67,36.42,25.0,-11.420000000000002,44.2071004,9.5541046
Garlenda,414,71.63,121,20.93,Savona,Liguria,158,33.4,298,63.0,50.699999999999996,29.6,-21.099999999999994,44.034227,8.09565
Genova,128529,50.42,107728,42.26,Genova,Liguria,121821,52.27,103219,44.29,8.160000000000004,-7.980000000000004,-16.140000000000008,44.40726,8.9338624
Giustenice,323,62.0,164,31.48,Savona,Liguria,142,34.38,251,60.77,30.52,26.39,-4.129999999999999,44.1725509,8.2471878
Giusvalla,118,68.6,41,23.84,Savona,Liguria,45,32.85,85,62.04,44.75999999999999,29.189999999999998,-15.569999999999993,44.447939,8.394149
Gorreto,51,83.61,8,13.11,Genova,Liguria,12,22.64,40,75.47,70.5,52.83,-17.67,44.6048462,9.2912637
Imperia,10505,58.63,5590,31.2,Imperia,Liguria,6279,43.29,7623,52.55,27.430000000000003,9.259999999999998,-18.170000000000005,43.8862958,8.0267106
Isola Del Cantone,420,63.54,200,30.26,Genova,Liguria,228,39.38,333,57.51,33.28,18.129999999999995,-15.150000000000006,44.6456444,8.9575577
Isolabona,188,65.28,83,28.82,Imperia,Liguria,88,38.77,131,57.71,36.46,18.939999999999998,-17.520000000000003,43.8788708,7.6400263
La Spezia,18390,48.31,16691,43.84,La Spezia,Liguria,17610,51.11,15770,45.77,4.469999999999999,-5.339999999999996,-9.809999999999995,44.1033871,9.8217022
Laigueglia,525,63.95,207,25.21,Savona,Liguria,202,34.47,356,60.75,38.74,26.28,-12.46,43.9788263,8.157351
Lavagna,3425,58.54,1963,33.55,Genova,Liguria,2156,41.92,2742,53.32,24.990000000000002,11.399999999999999,-13.590000000000003,44.3121536,9.3417059
Leivi,808,66.28,333,27.32,Genova,Liguria,387,36.65,620,58.71,38.96,22.060000000000002,-16.9,44.3544648,9.3151786
Lerici,2919,52.18,2331,41.67,La Spezia,Liguria,2176,49.34,2104,47.71,10.509999999999998,-1.6300000000000026,-12.14,44.0736073,9.9099135
Levanto,1673,50.45,1409,42.49,La Spezia,Liguria,1104,47.12,1146,48.91,7.960000000000001,1.7899999999999991,-6.170000000000002,44.1699056,9.6120397
Loano,3543,70.49,1151,22.9,Savona,Liguria,1199,30.37,2626,66.51,47.589999999999996,36.14,-11.449999999999996,44.1287537,8.2593713
Lorsica,177,75.64,50,21.37,Genova,Liguria,54,30.0,123,68.33,54.269999999999996,38.33,-15.939999999999998,44.445276,9.2843109
Lucinasco,67,60.91,35,31.82,Imperia,Liguria,34,35.05,61,62.89,29.089999999999996,27.840000000000003,-1.249999999999993,43.9680214,7.9639801
Lumarzo,473,64.53,210,28.65,Genova,Liguria,199,33.79,357,60.61,35.88,26.82,-9.060000000000002,44.4528876,9.1326199
Luni,1820,49.5,1557,42.34,La Spezia,Liguria,1749,61.48,1018,35.78,7.159999999999997,-25.699999999999996,-32.85999999999999,44.0778272,10.030189
Magliolo,280,60.87,135,29.35,Savona,Liguria,133,36.64,216,59.5,31.519999999999996,22.86,-8.659999999999997,44.1914858,8.2503958
Maissana,202,66.89,80,26.49,La Spezia,Liguria,96,44.04,101,46.33,40.400000000000006,2.289999999999999,-38.11000000000001,44.3373132,9.5363278
Mallare,347,63.09,169,30.73,Savona,Liguria,154,42.42,196,53.99,32.36,11.57,-20.79,44.2909819,8.2966494
Masone,866,44.62,927,47.76,Genova,Liguria,947,55.41,698,40.84,-3.1400000000000006,-14.569999999999993,-11.429999999999993,44.5013362,8.7163481
Massimino,38,69.09,12,21.82,Savona,Liguria,2,4.17,44,91.67,47.27,87.5,40.23,44.2995752,8.0706198
Mele,615,46.17,623,46.77,Genova,Liguria,705,59.59,441,37.28,-0.6000000000000014,-22.310000000000002,-21.71,44.4475498,8.7477687
Mendatica,77,70.64,24,22.02,Imperia,Liguria,30,31.58,62,65.26,48.620000000000005,33.68000000000001,-14.939999999999998,44.0763792,7.8056411
Mezzanego,446,69.91,150,23.51,Genova,Liguria,154,30.74,314,62.67,46.39999999999999,31.930000000000003,-14.469999999999988,44.3920085,9.407722
Mignanego,882,50.81,747,43.03,Genova,Liguria,787,52.61,653,43.65,7.780000000000001,-8.96,-16.740000000000002,44.54833,8.9156574
Millesimo,971,56.82,648,37.92,Savona,Liguria,589,48.2,586,47.95,18.9,-0.25,-19.15,44.367536,8.201746
Mioglia,140,54.9,101,39.61,Savona,Liguria,79,38.35,117,56.8,15.29,18.449999999999996,3.1599999999999966,44.4904597,8.4124727
Moconesi,823,69.51,291,24.58,Genova,Liguria,305,32.14,612,64.49,44.93000000000001,32.349999999999994,-12.580000000000013,44.4375998,9.2147076
Molini Di Triora,165,65.74,64,25.5,Imperia,Liguria,54,34.39,93,59.24,40.239999999999995,24.85,-15.389999999999993,43.9903183,7.7744405
Moneglia,936,67.19,395,28.36,Genova,Liguria,407,33.44,770,63.27,38.83,29.830000000000005,-8.999999999999993,44.2385001,9.4899769
Montalto Carpasio,130,59.91,71,32.72,Imperia,Liguria,69,44.52,82,52.9,27.189999999999998,8.379999999999995,-18.810000000000002,43.9477208,7.8619192
Montebruno,64,68.82,20,21.51,Genova,Liguria,16,20.0,62,77.5,47.30999999999999,57.5,10.190000000000012,44.5257423,9.2475673
Montegrosso Pian Latte,48,59.26,24,29.63,Imperia,Liguria,23,31.51,50,68.49,29.63,36.97999999999999,7.349999999999991,44.0668887,7.817209
Monterosso Al Mare,341,54.13,237,37.62,La Spezia,Liguria,301,53.09,251,44.27,16.510000000000005,-8.82,-25.330000000000005,44.1465216,9.6555583
Montoggio,587,62.58,280,29.85,Genova,Liguria,347,43.92,404,51.14,32.73,7.219999999999999,-25.509999999999998,44.5154356,9.0442742
Murialdo,216,52.55,180,43.8,Savona,Liguria,161,54.39,126,42.57,8.75,-11.82,-20.57,44.3165799,8.1642967
Nasino,31,36.9,30,35.71,Savona,Liguria,23,30.67,50,66.67,1.1899999999999977,36.0,34.81,44.1137497,8.0317127
Ne,665,62.15,347,32.43,Genova,Liguria,307,36.33,488,57.75,29.72,21.42,-8.299999999999997,44.3519258,9.4402573
Neirone,255,64.89,113,28.75,Genova,Liguria,119,34.39,212,61.27,36.14,26.880000000000003,-9.259999999999998,44.4546639,9.1905114
Noli,706,57.03,443,35.78,Savona,Liguria,450,46.01,498,50.92,21.25,4.910000000000004,-16.339999999999996,44.2058832,8.416419
Olivetta San Michele,68,66.67,11,10.78,Imperia,Liguria,22,32.84,43,64.18,55.89,31.340000000000003,-24.549999999999997,43.8797713,7.5346432
Onzo,72,57.6,43,34.4,Savona,Liguria,39,37.5,62,59.62,23.200000000000003,22.119999999999997,-1.0800000000000054,44.0702888,8.0500191
Orco Feglino,278,55.27,185,36.78,Savona,Liguria,173,44.7,199,51.42,18.490000000000002,6.719999999999999,-11.770000000000003,44.234314600000005,8.325371878950978
Orero,198,78.57,45,17.86,Genova,Liguria,52,22.81,161,70.61,60.709999999999994,47.8,-12.909999999999997,44.4172124,9.2890384
Ortovero,501,69.68,149,20.72,Savona,Liguria,195,33.68,364,62.87,48.96000000000001,29.189999999999998,-19.77000000000001,44.053427,8.096649
Osiglia,129,61.43,63,30.0,Savona,Liguria,49,33.79,86,59.31,31.43,25.520000000000003,-5.909999999999997,44.2826316,8.2021436
Ospedaletti,921,64.86,420,29.58,Imperia,Liguria,353,34.01,653,62.91,35.28,28.9,-6.380000000000003,43.8020802,7.7181662
Pallare,305,64.76,138,29.3,Savona,Liguria,119,39.27,174,57.43,35.46000000000001,18.159999999999997,-17.30000000000001,44.3272753,8.2754352
Perinaldo,275,61.38,133,29.69,Imperia,Liguria,69,35.57,116,59.79,31.69,24.22,-7.470000000000002,43.8676804,7.6684569
Piana Crixia,223,63.35,98,27.84,Savona,Liguria,69,35.38,119,61.03,35.510000000000005,25.65,-9.860000000000007,44.4861788,8.3061011
Pietra Ligure,2466,63.25,1117,28.65,Savona,Liguria,1112,37.49,1741,58.7,34.6,21.21,-13.39,44.152931,8.286552
Pietrabruna,172,67.19,62,24.22,Imperia,Liguria,50,33.11,96,63.58,42.97,30.47,-12.5,43.889722,7.902948
Pieve Di Teco,351,60.94,139,24.13,Imperia,Liguria,137,33.5,250,61.12,36.81,27.619999999999997,-9.190000000000005,44.047026,7.914946
Pieve Ligure,645,51.85,512,41.16,Genova,Liguria,592,48.68,586,48.19,10.690000000000005,-0.490000000000002,-11.180000000000007,44.3762485,9.0861613
Pigna,226,67.06,86,25.52,Imperia,Liguria,98,37.4,133,50.76,41.540000000000006,13.36,-28.180000000000007,43.9327142,7.6633135
Pignone,170,54.31,109,34.82,La Spezia,Liguria,116,41.13,160,56.74,19.490000000000002,15.61,-3.8800000000000026,44.1781487,9.7234963
Plodio,220,61.11,120,33.33,Savona,Liguria,116,45.67,136,53.54,27.78,7.869999999999997,-19.910000000000004,44.3511944,8.2564515
Pompeiana,267,69.71,82,21.41,Imperia,Liguria,89,32.84,174,64.21,48.3,31.36999999999999,-16.930000000000007,43.853721,7.889848
Pontedassio,701,66.57,260,24.69,Imperia,Liguria,252,28.73,597,68.07,41.879999999999995,39.33999999999999,-2.5400000000000063,43.940324,8.01385
Pontinvrea,264,61.54,132,30.77,Savona,Liguria,120,31.41,248,64.92,30.77,33.510000000000005,2.7400000000000055,44.4446264,8.43446
Pornassio,177,72.54,42,17.21,Imperia,Liguria,45,27.11,115,69.28,55.330000000000005,42.17,-13.160000000000004,44.0698777,7.8712894
Portofino,184,86.38,20,9.39,Genova,Liguria,18,10.91,145,87.88,76.99,76.97,-0.01999999999999602,44.3036653,9.2093446
Portovenere,906,52.71,716,41.65,La Spezia,Liguria,682,46.36,724,49.22,11.060000000000002,2.8599999999999994,-8.200000000000003,44.0506605,9.8344585
Prela',89,47.59,52,27.81,Imperia,Liguria,65,42.48,79,51.63,19.780000000000005,9.150000000000006,-10.629999999999999,43.9263186,7.9364801
Propata,36,59.02,20,32.79,Genova,Liguria,28,53.85,21,40.38,26.230000000000004,-13.469999999999999,-39.7,44.5655702,9.1859403
Quiliano,1524,41.9,1832,50.37,Savona,Liguria,1976,66.69,815,27.51,-8.469999999999999,-39.17999999999999,-30.709999999999994,44.292536,8.412652
Ranzo,153,66.23,59,25.54,Imperia,Liguria,56,32.94,105,61.76,40.690000000000005,28.82,-11.870000000000005,44.059627,8.014947
Rapallo,8979,68.73,3399,26.02,Genova,Liguria,3582,33.11,6665,61.62,42.71000000000001,28.509999999999998,-14.20000000000001,44.3511473,9.229671
Recco,3068,61.76,1582,31.84,Genova,Liguria,1684,38.63,2513,57.65,29.919999999999998,19.019999999999996,-10.900000000000002,44.3652396,9.1462995
Rezzo,103,69.13,34,22.82,Imperia,Liguria,42,31.58,86,64.66,46.309999999999995,33.08,-13.229999999999997,44.021425,7.871445
Rezzoaglio,280,77.99,68,18.94,Genova,Liguria,100,26.95,191,51.48,59.05,24.529999999999998,-34.519999999999996,44.5259967,9.387267
Rialto,139,54.09,94,36.58,Savona,Liguria,95,46.57,97,47.55,17.510000000000005,0.9799999999999969,-16.53000000000001,44.2258176,8.2631084
Ricco' Del Golfo Di Spezia,940,56.19,600,35.86,La Spezia,Liguria,719,49.76,682,47.2,20.33,-2.559999999999995,-22.889999999999993,44.1537194,9.7638623
Riomaggiore,266,33.59,461,58.21,La Spezia,Liguria,469,66.52,196,27.8,-24.619999999999997,-38.72,-14.100000000000001,44.0989747,9.7386704
Riva Ligure,821,65.52,322,25.7,Imperia,Liguria,265,30.49,572,65.82,39.81999999999999,35.33,-4.489999999999995,43.8383252,7.8826679
Roccavignale,258,61.28,139,33.02,Savona,Liguria,141,44.48,168,53.0,28.259999999999998,8.520000000000003,-19.739999999999995,44.347172,8.1646818
Rocchetta Di Vara,246,72.14,77,22.58,La Spezia,Liguria,116,38.03,182,59.67,49.56,21.64,-27.92,44.251273,9.7572844
Rocchetta Nervina,90,63.83,46,32.62,Imperia,Liguria,33,32.67,57,56.44,31.21,23.769999999999996,-7.440000000000005,43.890619,7.599642
Ronco Scrivia,1312,59.18,766,34.55,Genova,Liguria,683,40.49,945,56.02,24.630000000000003,15.530000000000001,-9.100000000000001,44.6132988,8.9523681
Rondanina,19,61.29,8,25.81,Genova,Liguria,6,24.0,18,72.0,35.480000000000004,48.0,12.519999999999996,44.563245,9.218071
Rossiglione,477,35.44,792,58.84,Genova,Liguria,843,67.22,378,30.14,-23.400000000000006,-37.08,-13.679999999999993,44.5639606,8.6685132
Rovegno,160,63.75,80,31.87,Genova,Liguria,75,33.63,137,61.43,31.88,27.799999999999997,-4.080000000000002,44.5767478,9.2791616
San Bartolomeo Al Mare,731,57.56,336,26.46,Imperia,Liguria,365,35.1,627,60.29,31.1,25.189999999999998,-5.910000000000004,43.922924,8.101152
San Biagio Della Cima,376,68.36,138,25.09,Imperia,Liguria,118,29.21,274,67.82,43.269999999999996,38.60999999999999,-4.660000000000004,43.8182416,7.6488198
San Colombano Certenoli,950,68.94,316,22.93,Genova,Liguria,322,32.89,602,61.49,46.01,28.6,-17.409999999999997,44.3992532,9.3288048
San Lorenzo Al Mare,390,61.03,155,24.26,Imperia,Liguria,200,40.24,283,56.94,36.769999999999996,16.699999999999996,-20.07,43.8547109,7.9637075
Sanremo,14059,65.15,6078,28.17,Imperia,Liguria,5042,35.04,8723,60.61,36.980000000000004,25.57,-11.410000000000004,43.8198253,7.7748827
Sant'Olcese,1062,30.99,2218,64.72,Genova,Liguria,1901,65.55,896,30.9,-33.730000000000004,-34.65,-0.9199999999999946,44.4908639,8.9705395
Santa Margherita Ligure,2928,68.83,1087,25.55,Genova,Liguria,1143,32.19,2286,64.38,43.28,32.19,-11.090000000000003,44.3339761,9.2111267
Santo Stefano Al Mare,789,68.67,267,23.24,Imperia,Liguria,238,33.15,434,60.45,45.43000000000001,27.300000000000004,-18.130000000000003,43.8377772,7.8982074
Santo Stefano D'Aveto,362,79.91,64,14.13,Genova,Liguria,71,15.88,229,51.23,65.78,35.349999999999994,-30.430000000000007,44.5472974,9.4502082
Santo Stefano Di Magra,2127,47.07,1977,43.75,La Spezia,Liguria,1974,51.21,1718,44.57,3.3200000000000003,-6.640000000000001,-9.96,44.1650993,9.9173304
Sarzana,4646,45.19,4548,44.23,La Spezia,Liguria,4774,53.2,3809,42.45,0.9600000000000009,-10.75,-11.71,44.1131762,9.9599823
Sassello,465,52.31,375,42.18,Savona,Liguria,336,45.28,374,50.4,10.130000000000003,5.119999999999997,-5.010000000000005,44.4789695,8.4901712
Savignone,881,59.93,493,33.54,Genova,Liguria,479,37.99,724,57.41,26.39,19.419999999999995,-6.970000000000006,44.5641434,8.9895956
Savona,12630,45.99,12473,45.42,Savona,Liguria,12932,57.96,8373,37.53,0.5700000000000003,-20.43,-21.0,44.3080251,8.4810315
Seborga,93,65.96,32,22.7,Imperia,Liguria,27,26.73,71,70.3,43.25999999999999,43.56999999999999,0.3100000000000023,43.826406,7.6945093
Serra Ricco',1889,47.61,1753,44.18,Genova,Liguria,1863,54.08,1466,42.55,3.4299999999999997,-11.530000000000001,-14.96,44.5188233,8.9516139
Sesta Godano,406,58.59,222,32.03,La Spezia,Liguria,385,57.38,259,38.6,26.560000000000002,-18.78,-45.34,44.2939663,9.675716
Sestri Levante,4442,51.93,3499,40.91,Genova,Liguria,3251,44.02,3640,49.29,11.020000000000003,5.269999999999996,-5.750000000000007,44.2714526,9.3958627
Soldano,241,57.79,142,34.05,Imperia,Liguria,109,36.58,171,57.38,23.740000000000002,20.800000000000004,-2.9399999999999977,43.8283447,7.6542098
Sori,1159,57.43,738,36.57,Genova,Liguria,819,43.96,983,52.76,20.86,8.799999999999997,-12.060000000000002,44.3733735,9.1044467
Spotorno,1072,59.85,613,34.23,Savona,Liguria,624,44.8,723,51.9,25.620000000000005,7.100000000000001,-18.520000000000003,44.2272571,8.4191772
Stella,826,54.96,555,36.93,Savona,Liguria,554,46.17,572,47.67,18.03,1.5,-16.53,44.4047212,8.5015651
Stellanello,278,73.54,77,20.37,Savona,Liguria,92,32.06,184,64.11,53.17,32.05,-21.120000000000005,44.0004199,8.0580389
Taggia,4083,67.86,1446,24.03,Imperia,Liguria,1494,33.28,2821,62.84,43.83,29.560000000000002,-14.269999999999996,43.8696068,7.8364582
Terzorio,50,36.5,20,14.6,Imperia,Liguria,29,29.0,65,65.0,21.9,36.0,14.100000000000001,43.852321,7.898349
Testico,70,81.4,10,11.63,Savona,Liguria,16,21.05,57,75.0,69.77000000000001,53.95,-15.820000000000007,44.005626,8.029249
Tiglieto,149,52.46,128,45.07,Genova,Liguria,120,49.38,120,49.38,7.390000000000001,0.0,-7.390000000000001,44.5245575,8.6192573
Toirano,937,66.22,368,26.01,Savona,Liguria,323,30.36,700,65.79,40.209999999999994,35.43000000000001,-4.779999999999987,44.12753,8.20485
Torriglia,816,64.61,367,29.06,Genova,Liguria,310,32.77,594,62.79,35.55,30.019999999999996,-5.530000000000001,44.5193954,9.1583522
Tovo San Giacomo,837,65.09,351,27.29,Savona,Liguria,366,35.06,627,60.06,37.800000000000004,25.0,-12.800000000000004,44.1764742,8.2684492
Tribogna,207,70.17,74,25.08,Genova,Liguria,71,31.98,139,62.61,45.09,30.63,-14.460000000000004,44.4199527,9.1902231
Triora,127,72.57,38,21.71,Imperia,Liguria,40,31.75,83,65.87,50.85999999999999,34.120000000000005,-16.739999999999988,43.992523,7.766243
Urbe,244,65.95,109,29.46,Savona,Liguria,129,45.1,146,51.05,36.49,5.949999999999996,-30.540000000000006,44.4772561,8.6313928
Uscio,664,64.22,308,29.79,Genova,Liguria,307,37.3,483,58.69,34.43,21.39,-13.04,44.4133432,9.1625628
Vado Ligure,1778,43.87,1897,46.8,Savona,Liguria,1888,61.12,963,31.18,-2.9299999999999997,-29.939999999999998,-27.009999999999998,44.2714401,8.4382205
Valbrevenna,206,49.76,185,44.69,Genova,Liguria,145,43.94,164,49.7,5.07,5.760000000000005,0.6900000000000048,44.5605766,9.0916029
Vallebona,301,59.49,184,36.36,Imperia,Liguria,114,30.65,243,65.32,23.130000000000003,34.669999999999995,11.539999999999992,43.812718,7.666544
Vallecrosia,1902,65.2,894,30.65,Imperia,Liguria,746,31.01,1606,66.75,34.550000000000004,35.739999999999995,1.1899999999999906,43.7888272,7.6434111
Varazze,4329,65.42,1806,27.29,Savona,Liguria,2036,37.43,3203,58.88,38.13,21.450000000000003,-16.68,44.3592996,8.5753273
Varese Ligure,732,71.98,213,20.94,La Spezia,Liguria,376,43.67,443,51.45,51.040000000000006,7.780000000000001,-43.260000000000005,44.3760527,9.5926994
Vasia,105,52.76,45,22.61,Imperia,Liguria,50,37.04,79,58.52,30.15,21.480000000000004,-8.669999999999995,43.93266,7.9532267
Vendone,134,62.04,54,25.0,Savona,Liguria,58,37.66,91,59.09,37.04,21.430000000000007,-15.609999999999992,44.0747064,8.0739301
Ventimiglia,5972,65.71,2680,29.49,Imperia,Liguria,2260,32.85,4418,64.22,36.22,31.369999999999997,-4.850000000000001,43.7917623,7.6033131
Vernazza,240,54.18,174,39.28,La Spezia,Liguria,242,63.85,125,32.98,14.899999999999999,-30.870000000000005,-45.77,44.1349412,9.6827757
Vessalico,65,70.65,17,18.48,Imperia,Liguria,18,20.69,67,77.01,52.17,56.32000000000001,4.150000000000006,44.0459373,7.960853
Vezzano Ligure,1545,44.09,1663,47.46,La Spezia,Liguria,1561,52.72,1296,43.77,-3.3699999999999974,-8.949999999999996,-5.579999999999998,44.14677475,9.87632698298859
Vezzi Portio,223,56.74,147,37.4,Savona,Liguria,168,54.9,129,42.16,19.340000000000003,-12.740000000000002,-32.080000000000005,44.23754985,8.353740825847455
Villa Faraldi,74,37.37,38,19.19,Imperia,Liguria,33,28.21,75,64.1,18.179999999999996,35.88999999999999,17.709999999999997,43.9685283,8.085228845771546
Villanova D'Albenga,1092,74.24,286,19.44,Savona,Liguria,404,37.51,629,58.4,54.8,20.89,-33.91,44.0468362,8.1428461
Vobbia,136,53.12,68,26.56,Genova,Liguria,71,41.04,96,55.49,26.56,14.450000000000003,-12.109999999999996,44.6012449,9.0386677
Zignago,200,68.97,76,26.21,La Spezia,Liguria,75,32.75,146,63.76,42.76,31.009999999999998,-11.75,44.2972458,9.749064
Zoagli,926,64.85,430,30.11,Genova,Liguria,311,32.4,588,61.25,34.739999999999995,28.85,-5.8899999999999935,44.3367625,9.2669559
Zuccarello,122,63.54,59,30.73,Savona,Liguria,54,36.49,92,62.16,32.81,25.669999999999995,-7.140000000000008,44.111029,8.115849
